City_ID,City,Lat,Lng,Max Temp,Humidity,Cloudiness,Wind Speed,Country,Date
0,aasiaat,68.7098,-52.8699,262.93,99,89,2.17,GL,1731284281
1,puerto natales,-51.7236,-72.4875,277.56,93,63,2.72,CL,1731284128
2,mabaruma,8.2,-59.7833,299.87,82,71,2.49,GY,1731284283
3,pandan,14.0453,124.1694,300.12,88,100,4.86,PH,1731284284
4,hawaiian paradise park,19.5933,-154.9731,300.88,78,75,4.63,US,1731284286
5,ushuaia,-54.8,-68.3,278.96,81,75,5.66,AR,1731284287
6,bronnitsy,55.4194,38.2708,274.09,80,75,2.0,RU,1731284288
7,port-aux-francais,-49.35,70.2167,277.42,88,63,11.09,TF,1731284289
8,weno,7.4515,151.8468,304.12,74,40,3.09,FM,1731284010
9,iqaluit,63.7506,-68.5145,270.0,63,75,3.6,CA,1731284293
10,severo-yeniseyskiy,60.3725,93.0408,265.49,87,100,2.88,RU,1731284294
11,saint croix,17.7397,-64.7388,299.4,94,0,2.06,VI,1731284295
12,avarua,-21.2078,-159.775,297.18,69,75,5.14,CK,1731284296
13,vozhega,60.4725,40.2213,270.27,95,88,1.85,RU,1731284298
14,bubaque,11.2833,-15.8333,302.58,65,0,2.73,GW,1731284299
15,tarawa,1.419,172.984,301.75,71,49,6.47,KI,1731284300
16,college,64.8569,-147.8028,259.86,78,0,0.0,US,1731284301
17,tangermunde,52.5446,11.9765,276.96,73,100,1.3,DE,1731284302
18,glendale,33.5387,-112.186,300.31,16,0,0.0,US,1731284096
19,anadyr,64.75,177.4833,261.43,92,20,4.0,RU,1731284305
20,lorengau,-2.0226,147.2712,301.39,79,60,3.14,PG,1731284306
21,enewetak,11.3474,162.3373,301.48,80,33,9.04,MH,1731284307
22,pisco,-13.7,-76.2167,292.6,82,0,7.72,PE,1731284308
23,winnemucca,40.973,-117.7357,290.18,19,0,2.57,US,1731284310
24,grytviken,-54.2811,-36.5092,271.89,92,72,3.15,GS,1731284311
25,flying fish cove,-10.4217,105.6791,298.97,94,100,4.63,CX,1731284312
26,lhokseumawe,5.1801,97.1507,298.06,87,100,1.32,ID,1731284313
27,basoko,1.2391,23.616,293.41,96,93,0.59,CD,1731284314
28,lebu,-37.6167,-73.65,284.54,87,4,3.74,CL,1731284099
29,badger,64.8,-147.5333,259.81,82,0,0.0,US,1731284317
30,torit,4.4133,32.5678,296.06,69,54,1.23,SS,1731284318
31,port mathurin,-19.6833,63.4167,297.17,80,94,9.35,MU,1731284319
32,maple ridge,49.2194,-122.6019,284.99,93,100,1.03,CA,1731284320
33,ust-nera,64.5667,143.2,247.75,98,95,1.28,RU,1731284321
34,adamstown,-25.066,-130.1015,295.08,72,100,4.96,PN,1731284321
35,grand falls-windsor,48.9332,-55.6649,274.1,80,19,6.6,CA,1731284324
36,port saint john's,-31.6229,29.5448,291.25,90,100,3.71,ZA,1731284325
37,tazovsky,67.4667,78.7,260.36,93,100,7.71,RU,1731284327
38,petropavlovsk-kamchatsky,53.0452,158.6483,268.48,93,100,2.0,RU,1731284330
39,bilibino,68.0546,166.4372,252.75,100,99,0.3,RU,1731284332
40,nagqu,31.5,92.0,268.51,58,5,0.82,CN,1731284333
41,bodden town,19.2833,-81.25,299.15,95,20,0.51,KY,1731284284
42,tralee,52.2704,-9.7026,280.35,93,90,1.58,IE,1731284336
43,kandla,23.0333,70.2167,299.95,45,0,1.16,IN,1731284337
44,ta`u,-14.2336,-169.5144,300.21,83,39,7.65,AS,1731284338
45,san patricio,28.017,-97.5169,300.12,62,23,3.46,US,1731284339
46,kodiak,57.79,-152.4072,277.88,87,100,5.14,US,1731284341
47,kapa'a,22.0752,-159.319,300.33,79,40,6.17,US,1731284342
48,djambala,-2.5447,14.7533,291.19,90,66,0.77,CG,1731284343
49,iskateley,67.6803,53.1512,263.73,91,18,2.91,RU,1731284344
50,sarupathar,26.1984,93.8094,290.94,95,0,0.55,IN,1731284345
51,makokou,0.5738,12.8642,293.29,99,26,0.79,GA,1731284347
52,edinburgh of the seven seas,-37.0676,-12.3116,288.9,86,96,14.65,SH,1731284328
53,codrington,-38.2667,141.9667,291.57,49,24,3.53,AU,1731284349
54,vorkuta,67.5,64.0,256.78,99,83,3.3,RU,1731284350
55,longyearbyen,78.2186,15.6401,271.06,93,75,0.0,SJ,1731284351
56,yellowknife,62.456,-114.3525,257.38,95,23,2.92,CA,1731284352
57,port elizabeth,-33.918,25.5701,287.77,95,0,2.06,ZA,1731284354
58,mount isa,-20.7333,139.5,308.02,17,61,7.72,AU,1731284355
59,lensk,60.7253,114.9278,257.32,100,100,1.61,RU,1731284356
60,saint-louis du nord,19.9333,-72.7167,300.76,82,41,7.5,HT,1731284357
61,lerwick,60.1545,-1.1494,282.58,84,46,8.89,GB,1731284358
62,udachny,66.4167,112.4,255.77,97,97,2.1,RU,1731284360
63,east london,-33.0153,27.9116,290.3,85,100,2.82,ZA,1731284361
64,waitangi,-43.9535,-176.5597,289.16,93,100,4.47,NZ,1731284362
65,invercargill,-46.4,168.35,286.49,64,63,5.36,NZ,1731284363
66,gizo,-8.103,156.8419,302.13,70,66,1.56,SB,1731284364
67,popondetta,-8.7537,148.2534,304.89,54,90,0.95,PG,1731284366
68,bredasdorp,-34.5322,20.0403,287.07,85,99,2.05,ZA,1731284367
69,praia da vitoria,38.7333,-27.0667,293.29,88,75,5.11,PT,1731284368
70,medinipur,22.4333,87.3333,293.59,70,0,1.83,IN,1731284369
71,papatowai,-46.5619,169.4708,285.8,45,71,6.04,NZ,1731284095
72,nantai,40.9241,122.8044,279.71,48,37,1.0,CN,1731284372
73,sao joao da barra,-21.6403,-41.0511,295.2,78,80,4.7,BR,1731284373
74,olonkinbyen,70.9221,-8.7187,274.11,94,100,8.4,SJ,1731284374
75,blackmans bay,-43.0167,147.3167,290.66,56,1,0.45,AU,1731284375
76,pancas,-19.225,-40.8514,293.75,83,95,0.77,BR,1731284376
77,tabou,4.423,-7.3528,298.91,86,14,2.91,CI,1731284378
78,afaahiti,-17.75,-149.2833,297.81,87,98,7.57,PF,1731284379
79,vilyuysk,63.7553,121.6247,260.91,96,100,2.28,RU,1731284380
80,amancio,20.8257,-77.5799,298.17,82,28,2.08,CU,1731284381
81,lihue,21.9789,-159.3672,299.92,77,40,6.17,US,1731284236
82,stanley,54.868,-1.6985,280.11,88,48,4.12,GB,1731284384
83,bethel,41.3712,-73.414,285.34,67,75,1.54,US,1731284308
84,alice springs,-23.7,133.8833,294.9,78,98,6.69,AU,1731284386
85,dudinka,69.4058,86.1778,249.3,97,93,3.56,RU,1731284387
86,malango,-2.9627,119.9001,296.41,85,44,0.82,ID,1731284388
87,qaqortoq,60.7167,-46.0333,268.43,75,100,3.87,GL,1731284390
88,pechory,57.8164,27.6119,277.11,90,100,2.01,RU,1731284391
89,hermanus,-34.4187,19.2345,286.37,84,97,3.97,ZA,1731284392
90,willowmore,-33.2926,23.4895,285.37,78,99,3.62,ZA,1731284393
91,saint-denis,48.9167,2.3333,281.01,94,20,2.06,FR,1731284394
92,klyuchi,52.2667,79.1667,273.19,97,100,7.45,RU,1731284396
93,playa blanca,28.8643,-13.8281,297.21,81,0,3.29,ES,1731284397
94,vorgashor,67.5833,63.95,257.26,99,84,3.23,RU,1731284398
95,tromso,69.6496,18.957,278.16,81,100,2.06,NO,1731284399
96,jamestown,42.097,-79.2353,284.83,97,100,5.66,US,1731284400
97,tommot,58.9564,126.2925,257.98,98,98,1.21,RU,1731284402
98,tofol,5.3248,163.0078,300.03,89,100,4.12,FM,1731284403
99,albany,42.6001,-73.9662,280.56,74,100,0.89,US,1731284338
100,arraial do cabo,-22.9661,-42.0278,295.07,94,40,0.0,BR,1731284405
101,sinabang,2.4803,96.3801,299.34,86,98,1.03,ID,1731284406
102,grottammare,42.9888,13.8649,284.16,76,4,4.81,IT,1731284408
103,huicungo,-7.2833,-76.8,298.05,77,63,0.8,PE,1731284409
104,himatnagar,23.6,72.95,295.37,39,0,1.69,IN,1731284410
105,kingston,17.997,-76.7936,300.68,83,20,5.66,JM,1731284411
106,akrehamn,59.2667,5.1833,280.29,93,100,7.2,NO,1731284412
107,fortaleza,-3.7227,-38.5247,300.22,74,40,5.14,BR,1731284414
108,ilulissat,69.2167,-51.1,266.16,79,83,0.0,GL,1731284415
109,chibougamau,49.9168,-74.3659,273.94,100,100,1.54,CA,1731284416
110,thompson,55.7435,-97.8558,268.24,93,20,0.0,CA,1731284417
111,arak,34.0917,49.6892,283.65,50,13,1.51,IR,1731284418
112,dolinsk,47.35,142.8,276.24,63,1,7.5,RU,1731284339
113,mont-laurier,46.5501,-75.4993,277.45,68,100,1.74,CA,1731284421
114,margaret river,-33.95,115.0667,288.59,60,48,2.47,AU,1731284422
115,al bardiyah,31.7561,25.0865,289.99,67,3,1.25,LY,1731284423
116,chehalis,46.662,-122.964,285.41,88,75,3.6,US,1731284424
117,west island,-12.1568,96.8225,299.14,89,75,7.72,CC,1731284311
118,valdez,1.2492,-78.9831,297.73,80,97,5.23,EC,1731284427
119,kishanganj,26.1167,87.9333,293.74,73,0,1.31,IN,1731284428
120,acapulco de juarez,16.8634,-99.8901,303.05,74,40,2.06,MX,1731284429
121,gadzhiyevo,69.2551,33.3362,274.89,70,99,7.19,RU,1731284430
122,pangoa,-12.1167,-73.0,296.53,86,100,1.42,PE,1731284431
123,katsuren-haebaru,26.3369,127.8719,300.36,83,20,2.06,JP,1731284433
124,victorica,-36.2151,-65.4359,285.92,64,37,3.08,AR,1731284434
125,guerrero negro,27.9769,-114.0611,294.05,42,98,4.66,MX,1731284435
126,bayanhongor,46.7167,100.1167,257.76,84,28,2.07,MN,1731284436
127,talnakh,69.4865,88.3972,249.15,89,72,0.94,RU,1731284437
128,tura,25.5198,90.2201,291.99,87,0,1.53,IN,1731284439
129,nova sintra,14.8667,-24.7167,299.92,72,79,8.1,CV,1731284440
130,ribeira grande,38.5167,-28.7,294.14,83,26,8.94,PT,1731284441
131,tsiombe,-25.3,45.4833,295.23,75,46,1.96,MG,1731284442
132,noumea,-22.2763,166.4572,303.16,99,23,9.03,NC,1731284443
133,kuraymah,18.55,31.85,295.82,28,59,5.63,SD,1731284446
134,hirara,24.8,125.2833,300.07,83,40,4.63,JP,1731284447
135,bikenibeu village,1.3673,173.1241,301.63,71,57,6.42,KI,1731284428
136,palapag,12.5458,125.1147,299.73,90,99,2.04,PH,1731284449
137,sur,22.5667,59.5289,299.19,51,0,2.27,OM,1731284451
138,punta arenas,-53.15,-70.9167,281.21,53,40,10.8,CL,1731284452
139,souillac,-20.5167,57.5167,298.36,88,75,2.06,MU,1731284453
140,krasnovishersk,60.4078,57.082,266.9,88,99,3.71,RU,1731284454
141,touros,-5.1989,-35.4608,298.42,77,100,5.41,BR,1731284455
142,uturoa,-16.7333,-151.4333,300.56,80,82,5.91,PF,1731284457
143,fort bragg,35.139,-79.006,291.06,85,75,0.0,US,1731284458
144,mar del plata,-38.0023,-57.5575,288.2,89,100,2.57,AR,1731284459
145,al faw,29.9776,48.4741,297.82,41,100,3.46,IQ,1731284460
146,altamira,-3.2033,-52.2064,303.86,36,96,1.45,BR,1731284461
147,camarinas,43.1311,-9.1817,288.67,94,91,3.35,ES,1731284463
148,namibe,-15.1961,12.1522,293.13,74,76,4.31,AO,1731284464
149,thomson,33.4707,-82.5046,288.61,99,100,4.12,US,1731284465
150,ghadamis,30.1337,9.5007,292.81,29,32,2.47,LY,1731284466
151,aginskoye,51.1,114.53,265.02,96,99,2.23,RU,1731284467
152,choyr,46.3611,108.3611,269.72,67,2,2.93,MN,1731284469
153,dom pedrito,-30.9828,-54.6731,291.4,78,0,1.92,BR,1731284470
154,ouadda,8.0777,22.4007,293.55,85,100,0.82,CF,1731284471
155,tual,-5.6667,132.75,301.65,78,81,5.95,ID,1731284348
156,kyaikkami,16.08,97.5675,298.54,85,60,2.98,MM,1731284473
157,nuuk,64.1835,-51.7216,270.49,86,100,1.54,GL,1731284360
158,douglas,41.3,-96.167,283.37,81,0,0.45,US,1731284476
159,kawant,22.1,74.05,295.5,41,0,1.74,IN,1731284477
160,koh kong,11.6175,102.9806,298.01,85,14,1.92,KH,1731284478
161,spring creek,40.7266,-115.5859,286.98,25,97,2.09,US,1731284479
162,amontada,-3.3617,-39.8317,298.07,83,93,4.84,BR,1731284481
163,tiksi,71.6872,128.8694,255.12,100,84,1.4,RU,1731284482
164,basco,20.4487,121.9702,299.74,88,97,10.87,PH,1731284483
165,paramonga,-10.6667,-77.8333,292.29,82,36,3.16,PE,1731284484
166,arvayheer,46.2639,102.775,267.24,55,13,0.29,MN,1731284485
167,valdivia,-39.8142,-73.2459,284.2,97,100,2.68,CL,1731284486
168,hotan,37.0997,79.9269,281.52,42,45,2.15,CN,1731284488
169,georgetown,5.4112,100.3354,300.11,89,20,1.03,MY,1731284284
170,port augusta,-32.5,137.7667,300.22,42,81,4.38,AU,1731284490
171,al khafji,28.4391,48.4913,298.54,43,89,3.36,SA,1731284491
172,galle,6.0367,80.217,297.85,87,61,1.63,LK,1731284305
173,ar rutbah,33.0381,40.2848,288.02,65,21,2.54,IQ,1731284494
174,lundazi,-12.2929,33.1782,294.21,68,60,2.96,ZM,1731284495
175,eyl,7.9803,49.8164,299.32,77,66,6.6,SO,1731284496
176,puerto tirol,-27.3722,-59.0821,301.51,57,0,3.09,AR,1731284497
177,barra de santo antonio,-9.4047,-35.5072,298.28,84,49,6.81,BR,1731284498
178,puerto ayora,-0.7393,-90.3518,295.12,86,86,1.34,EC,1731284500
179,hamilton,39.1834,-84.5333,291.36,92,100,4.63,US,1731284501
180,nar'yan-mar,67.6713,53.087,263.88,90,25,2.99,RU,1731284502
181,new norfolk,-42.7826,147.0587,291.32,28,3,1.64,AU,1731284503
182,saipan,15.1355,145.701,304.54,81,20,6.17,MP,1731284504
183,thunder bay,48.4001,-89.3168,280.14,93,100,1.54,CA,1731284506
184,veinticinco de mayo,-35.4323,-60.1727,288.7,90,100,2.24,AR,1731284507
185,bandarbeyla,9.4942,50.8122,299.17,80,75,8.13,SO,1731284508
186,westport,41.1415,-73.3579,287.02,64,75,5.66,US,1731284509
187,goundam,16.4145,-3.6708,298.42,14,29,4.35,ML,1731284510
188,queenstown,-31.8976,26.8753,285.64,91,100,1.94,ZA,1731284512
189,novo aripuana,-5.1206,-60.3797,301.43,69,72,1.81,BR,1731284513
190,minas de marcona,-15.2119,-75.1103,288.35,79,6,5.17,PE,1731284514
191,hinis,39.3606,41.7022,275.41,48,93,0.4,TR,1731284515
192,kismayo,-0.3582,42.5454,299.48,82,94,3.91,SO,1731284516
193,maralal,1.0968,36.698,288.61,79,85,2.45,KE,1731284518
194,coahuayana de hidalgo,18.7,-103.6583,299.85,78,45,1.48,MX,1731284519
195,wailua homesteads,22.0669,-159.378,299.59,80,40,6.17,US,1731284520
196,pervomayskiy,53.2485,40.2871,273.26,93,11,2.17,RU,1731284521
197,mugia,43.1041,-9.2179,288.66,93,84,3.37,ES,1731284522
198,port isabel,26.0734,-97.2086,299.27,84,0,4.47,US,1731284524
199,cidreira,-30.1811,-50.2056,293.93,77,0,9.72,BR,1731284525
200,isafjordur,66.0755,-23.124,276.31,83,93,12.35,IS,1731284295
201,yarumal,6.9632,-75.4174,284.06,99,99,0.66,CO,1731284527
202,maebaru-chuo,33.55,130.2,290.97,87,100,3.35,JP,1731284528
203,tolanaro,-25.0319,46.9987,298.19,78,0,6.17,MG,1731284408
204,qazvin,36.2797,50.0049,285.23,43,12,0.54,IR,1731284531
205,borazjan,29.2666,51.2159,299.05,38,100,3.38,IR,1731284532
206,chonchi,-42.6128,-73.8092,282.1,90,22,1.81,CL,1731284292
207,harstad,68.799,16.5293,280.16,88,82,2.67,NO,1731284534
208,vanino,49.0869,140.2543,272.79,56,4,6.71,RU,1731284537
209,itoman,26.1247,127.6694,300.36,83,75,4.12,JP,1731284457
210,carnarvon,-24.8667,113.6333,294.9,59,74,11.03,AU,1731284539
211,san pedro pochutla,15.7333,-96.4667,301.32,88,44,1.57,MX,1731284540
212,quellon,-43.1167,-73.6167,280.33,87,44,3.46,CL,1731284541
213,atafu village,-8.5421,-172.5159,301.29,71,67,3.36,TK,1731284543
214,itaituba,-4.2761,-55.9836,303.63,34,87,1.16,BR,1731284544
215,lompoc,34.6391,-120.4579,292.0,64,0,3.6,US,1731284545
216,rakops,-21.0167,24.3333,297.65,57,100,3.12,BW,1731284548
217,cabo san lucas,22.8909,-109.9124,299.32,58,0,4.12,MX,1731284550
218,tarko-sale,64.9225,77.785,266.12,95,100,7.07,RU,1731284551
219,cukai,4.25,103.4167,298.8,89,99,1.32,MY,1731284552
220,la asuncion,11.0333,-63.8628,303.0,70,52,4.12,VE,1731284554
221,salinopolis,-0.6136,-47.3561,300.24,80,61,5.96,BR,1731284555
222,cave spring,37.2276,-80.0128,285.62,94,100,2.57,US,1731284556
223,zouerate,22.7187,-12.4521,296.65,19,0,2.58,MR,1731284557
224,howrah,22.5892,88.3103,296.15,83,40,3.09,IN,1731284561
225,vilyuchinsk,52.9306,158.4028,269.3,95,100,1.82,RU,1731284486
226,jiazi,22.8779,116.067,295.86,79,51,4.11,CN,1731284563
227,antsiranana,-12.2787,49.2917,298.68,80,28,5.72,MG,1731284565
228,santana,-0.0583,-51.1817,302.25,74,0,4.63,BR,1731284566
229,altus,34.6381,-99.334,291.07,56,0,1.54,US,1731284567
230,taltal,-25.4,-70.4833,291.13,79,57,1.43,CL,1731284568
231,ravenna,44.4167,11.9833,282.09,95,0,2.04,IT,1731284569
232,saint-philippe,-21.3585,55.7679,297.07,88,36,4.75,RE,1731284571
233,dalandzadgad,43.5708,104.425,274.41,29,0,3.95,MN,1731284572
234,hereford,52.0568,-2.7148,285.93,96,87,1.4,GB,1731284573
235,newman,37.3138,-121.0208,294.29,38,17,0.89,US,1731284375
236,vila franca do campo,37.7167,-25.4333,293.38,99,90,5.04,PT,1731284539
237,nemuro,43.3236,145.575,285.68,81,100,7.36,JP,1731284577
238,papao,-17.75,-149.55,301.97,89,99,8.54,PF,1731284578
239,yung shue wan,22.2333,114.1167,298.83,74,34,0.89,HK,1731284579
240,argo,37.6333,22.7333,282.98,77,28,2.08,GR,1731284580
241,birao,10.2849,22.7882,297.77,30,96,2.5,CF,1731284581
242,raduzhny,62.0961,77.475,260.74,97,82,1.73,RU,1731284582
243,gogrial,8.5332,28.1004,296.95,78,70,3.63,SS,1731284584
244,minas,-34.3759,-55.2377,290.5,76,43,3.55,UY,1731284585
245,hovd,48.0056,91.6419,269.25,45,28,3.76,MN,1731284586
246,freetown,8.484,-13.2299,300.15,79,2,1.36,SL,1731284587
247,takum,7.2667,9.9833,295.51,51,22,1.66,NG,1731284589
248,yunyang,33.4474,112.7142,288.38,82,41,2.36,CN,1731284590
249,nova vicosa,-17.8919,-39.3719,297.07,81,62,6.0,BR,1731284591
250,prince rupert,54.3161,-130.3201,281.98,76,100,14.92,CA,1731284592
251,ocara,-4.4908,-38.5967,296.89,80,92,3.83,BR,1731284593
252,shingu,33.7333,135.9833,291.51,88,100,1.1,JP,1731284595
253,mount gambier,-37.8333,140.7667,288.92,56,42,2.41,AU,1731284396
254,muynoq,43.7683,59.0214,281.59,80,84,4.6,UZ,1731284597
255,sirte,31.2089,16.5887,293.51,72,100,2.18,LY,1731284598
256,kyosai,34.8503,128.5886,286.99,75,0,2.98,KR,1731284599
257,qarqaraly,49.4058,75.4742,271.68,94,100,9.42,KZ,1731284601
258,zavodskoy,43.4597,132.2922,276.92,48,4,2.0,RU,1731284602
259,conception bay south,47.4999,-52.9981,275.78,74,11,9.2,CA,1731284603
260,bengkulu,-3.8004,102.2655,298.29,88,65,1.46,ID,1731284604
261,volchikha,52.0333,80.3833,273.33,97,100,7.35,RU,1731284605
262,redencao,-4.2258,-38.7306,296.17,88,88,2.3,BR,1731284607
263,geneina,13.45,22.45,296.07,27,91,7.86,SD,1731284608
264,kitakami,39.2833,141.1167,281.34,100,40,1.54,JP,1731284569
265,bellavista,-7.0561,-76.5911,298.51,75,65,0.57,PE,1731284610
266,constantia,44.1833,28.65,278.53,77,99,9.15,RO,1731284611
267,waimea,20.0231,-155.6717,295.07,81,17,3.13,US,1731284613
268,sitka,57.0531,-135.33,282.09,57,75,7.2,US,1731284382
269,la passe,45.5549,-0.8967,288.37,68,100,3.99,FR,1731284615
270,mount pearl,47.5166,-52.7813,275.45,74,20,12.86,CA,1731284616
271,sechura,-5.5569,-80.8222,293.05,77,93,6.85,PE,1731284617
272,happy valley-goose bay,53.3168,-60.3315,275.32,69,40,3.6,CA,1731284619
273,nuku'alofa,-21.1333,-175.2,299.34,83,75,7.72,TO,1731284595
274,langepas,61.2544,75.2124,263.77,93,100,7.2,RU,1731284621
275,port macquarie,-31.4333,152.9167,297.08,72,100,0.89,AU,1731284496
276,hanawa,40.1836,140.7872,285.82,57,3,1.72,JP,1731284623
277,cole harbour,44.6724,-63.4751,279.22,66,13,4.63,CA,1731284625
278,bridgewater,44.3835,-64.5155,278.97,74,29,3.09,CA,1731284626
279,mareeba,-17.0,145.4333,303.84,53,12,4.56,AU,1731284627
280,filadelfia,39.9523,-75.1638,287.29,73,100,3.09,US,1731284628
281,sola,-13.8833,167.55,302.52,70,75,3.09,VU,1731284629
282,bay harbor,30.1471,-85.6146,297.56,87,83,0.89,US,1731284631
283,sakaiminato,35.55,133.2333,288.14,100,75,2.06,JP,1731284632
284,trujillo,-8.116,-79.03,291.13,88,75,2.57,PE,1731284633
285,lahad datu,5.0268,118.327,300.5,80,97,1.77,MY,1731284635
286,berdigestyakh,62.0989,126.6992,252.55,100,97,1.26,RU,1731284637
287,los banos,14.1667,121.1833,300.19,86,100,3.31,PH,1731284638
288,puerto baquerizo moreno,-0.9,-89.6,294.12,72,87,4.82,EC,1731284639
289,santa ana,33.7456,-117.8678,296.99,37,20,2.57,US,1731284489
290,majuro,7.0897,171.3803,301.13,89,100,4.12,MH,1731284641
291,mossel bay,-34.1831,22.146,287.11,83,43,4.38,ZA,1731284642
292,igarka,67.4667,86.5833,260.56,91,100,4.4,RU,1731284644
293,kruisfontein,-34.0033,24.7314,285.46,87,42,1.62,ZA,1731284645
294,ardestan,33.3761,52.3694,286.39,40,64,1.23,IR,1731284646
295,darhan,49.4867,105.9228,270.37,50,23,3.43,MN,1731284647
296,kryvyi rih,47.9167,33.35,276.51,75,4,2.92,UA,1731284648
297,kavaratti,10.5669,72.642,301.19,72,43,3.31,IN,1731284650
298,rio grande,-32.035,-52.0986,292.32,79,0,7.33,BR,1731284606
299,bhamo,24.2667,97.2333,294.58,81,99,0.32,MM,1731284652
300,konstantinovka,49.6167,127.9833,269.91,61,67,0.84,RU,1731284653
301,byron bay,-28.65,153.6167,298.53,76,98,3.98,AU,1731284440
302,kilindoni,-7.9139,39.6668,299.69,76,2,5.41,TZ,1731284656
303,hithadhoo,-0.6,73.0833,301.18,72,89,5.93,MV,1731284657
304,meadow lake,34.8014,-106.5436,283.03,59,1,0.97,US,1731284658
305,mocoa,1.1493,-76.6466,293.46,97,93,1.78,CO,1731284659
306,st. john's,47.5649,-52.7093,275.91,73,20,12.86,CA,1731284435
307,al bawiti,28.3492,28.8659,289.04,50,2,1.85,EG,1731284662
308,lubango,-14.9172,13.4925,290.07,94,89,2.06,AO,1731284663
309,whitehorse,60.7161,-135.0538,272.58,80,75,5.66,CA,1731284664
310,sao joaquim,-28.2939,-49.9317,285.54,95,0,1.57,BR,1731284665
311,nguigmi,14.2495,13.1092,296.48,27,99,4.62,NE,1731284666
312,kukawa,12.9234,13.5606,296.7,48,98,3.99,NG,1731284669
313,wagini,12.6878,7.1958,293.08,25,63,4.0,NG,1731284670
314,porto novo,6.4965,2.6036,300.05,83,41,1.95,BJ,1731284671
315,vila velha,-20.3297,-40.2925,296.45,81,75,5.14,BR,1731284673
316,tangalle,6.024,80.7911,297.86,91,52,2.35,LK,1731284674
317,praia,14.9215,-23.5087,298.79,73,76,6.17,CV,1731284675
318,boende,-0.2167,20.8667,292.49,99,83,1.11,CD,1731284676
319,puerto deseado,-47.7503,-65.8938,286.78,35,90,9.15,AR,1731284677
320,sittwe,20.15,92.9,297.15,81,61,3.21,MM,1731284679
321,kununurra,-15.7667,128.7333,307.14,55,47,2.57,AU,1731284680
322,badr hunayn,23.7829,38.7905,299.75,64,6,1.18,SA,1731284681
323,impfondo,1.6381,18.0667,292.67,99,50,0.37,CG,1731284682
324,branford center,41.2774,-72.8151,286.46,70,100,4.92,US,1731284683
325,piton saint-leu,-21.2196,55.3151,295.21,69,0,1.54,RE,1731284685
326,rongelap,11.1635,166.8941,301.4,77,25,8.94,MH,1731284686
327,umraniye,41.0164,29.1248,284.84,86,100,3.45,TR,1731284687
328,richards bay,-28.783,32.0377,293.16,94,100,2.12,ZA,1731284688
329,senillosa,-39.0,-68.4167,291.03,29,56,11.71,AR,1731284689
330,pacific grove,36.6177,-121.9166,291.68,64,0,2.57,US,1731284690
331,marsh harbour,26.5412,-77.0636,298.52,85,98,10.02,BS,1731284692
332,kharp,66.8014,65.8081,255.35,91,57,4.58,RU,1731284693
333,nelson bay,-32.7167,152.15,296.48,69,84,2.24,AU,1731284694
334,maceio,-9.6658,-35.7353,297.84,88,0,4.63,BR,1731284695
335,kiffa,16.6166,-11.4045,299.5,13,9,4.34,MR,1731284696
336,vadso,70.0744,29.7487,276.24,87,100,1.03,NO,1731284698
337,la ronge,55.1001,-105.2842,275.29,75,0,1.54,CA,1731284699
338,aleg,17.0481,-13.9209,301.03,13,5,4.01,MR,1731284700
339,nagar karnul,16.4821,78.3247,293.01,66,93,3.42,IN,1731284701
340,labasa,-16.4167,179.3833,299.5,79,95,3.86,FJ,1731284702
341,simav,39.0882,28.9777,278.56,84,100,2.31,TR,1731284704
342,lazaro cardenas,17.9583,-102.2,300.93,78,38,3.88,MX,1731284705
343,kribi,2.95,9.9167,298.29,84,48,1.14,CM,1731284706
344,dzhalagash,45.0833,64.6667,280.81,78,98,7.21,KZ,1731284707
345,khilok,51.3674,110.4676,260.3,99,94,1.0,RU,1731284708
346,ola,59.5833,151.2833,264.5,71,100,10.36,RU,1731284710
347,bumba,2.1833,22.4667,293.71,96,96,0.26,CD,1731284711
348,conduaga,8.862,117.4893,301.02,80,91,0.86,PH,1731284712
349,nilsia,63.2,28.0833,270.07,87,99,2.11,FI,1731284713
350,trincomalee,8.5711,81.2335,300.26,76,51,3.62,LK,1731284714
351,al hamul,31.3115,31.1477,289.7,75,0,3.48,EG,1731284716
352,island harbour,50.724,-1.2758,287.03,74,49,0.45,GB,1731284717
353,kone,-21.0595,164.8658,304.79,37,28,3.24,NC,1731284718
354,huangmei,30.1924,116.025,291.42,72,0,2.82,CN,1731284720
355,ambodifotatra,-16.9833,49.85,298.9,82,12,3.68,MG,1731284722
356,ati,13.2154,18.3353,298.57,21,98,6.45,TD,1731284723
357,barakani,-12.1356,44.4317,298.98,79,15,1.12,KM,1731284724
358,binzhou,37.3667,118.0167,287.51,80,100,0.58,CN,1731284725
359,el abiodh sidi cheikh,32.893,0.5484,286.74,69,21,6.03,DZ,1731284726
360,trairi,-3.2778,-39.2689,298.69,79,71,5.36,BR,1731284728
361,cockburn town,21.4612,-71.1419,300.44,79,100,8.52,TC,1731284729
362,taoudenni,22.6783,-3.9836,298.12,21,39,4.41,ML,1731284731
363,borujerd,33.8973,48.7516,284.9,58,13,1.15,IR,1731284732
364,port alberni,49.2413,-124.8028,281.37,92,100,1.65,CA,1731284734
365,brookings,44.3114,-96.7984,281.51,96,0,3.09,US,1731284735
366,makarov,48.6333,142.8,274.69,59,8,8.17,RU,1731284736
367,kapsan-up,41.0903,128.2933,275.51,84,33,0.62,KP,1731284737
368,winkler,49.1817,-97.941,279.25,75,100,9.26,CA,1731284738
369,bishkul,54.7803,69.1033,263.23,95,22,3.82,KZ,1731284739
370,coquimbo,-29.9533,-71.3436,289.0,72,0,3.6,CL,1731284741
371,sake,-1.5736,29.045,288.93,94,93,0.55,CD,1731284742
372,bathurst,-33.4166,149.5806,295.91,59,98,0.45,AU,1731284743
373,fale old settlement,-9.3852,-171.2468,301.21,74,69,4.82,TK,1731284744
374,smithers,54.7804,-127.1743,275.33,75,100,4.63,CA,1731284745
375,muravlenko,63.7898,74.523,259.8,96,91,3.42,RU,1731284747
376,narok,-1.0783,35.8601,286.94,87,95,1.33,KE,1731284748
377,berezovyy,51.6667,135.7,270.17,48,29,3.15,RU,1731284749
378,jinchang,38.4953,102.1739,277.63,57,56,3.01,CN,1731284750
379,colonia,50.9333,6.95,283.22,92,100,2.57,DE,1731284751
380,vlore,40.4667,19.4897,287.61,68,93,1.78,AL,1731284753
381,cabugao,17.7931,120.4578,299.28,81,97,3.34,PH,1731284754
382,ponta delgada,37.7333,-25.6667,293.55,88,75,6.17,PT,1731284755
383,hammerfest,70.6634,23.6821,280.4,87,75,7.2,NO,1731284756
384,taro,-8.3862,115.28,297.16,86,37,0.43,ID,1731284757
385,tokar,18.4254,37.729,302.06,72,77,5.4,SD,1731284759
386,naze,28.3667,129.4833,298.66,87,16,2.69,JP,1731284760
387,labrador city,52.9463,-66.9114,272.1,74,100,6.17,CA,1731284761
388,san luis de la loma,17.2706,-100.8939,300.16,83,53,1.76,MX,1731284762
389,kokpekty,48.75,82.4,275.59,78,100,7.44,KZ,1731284764
390,caleta de carquin,-11.0925,-77.6267,292.24,82,46,3.55,PE,1731284765
391,ellsworth,44.5434,-68.4195,280.86,71,0,3.09,US,1731284766
392,lydenburg,-25.0978,30.4597,289.05,97,100,0.62,ZA,1731284767
393,tamanrasset,22.785,5.5228,285.1,37,0,1.54,DZ,1731284768
394,dwarka,22.2394,68.9678,300.22,66,0,4.42,IN,1731284770
395,horezu,45.15,24.0167,276.15,95,100,0.29,RO,1731284771
396,port alfred,-33.5906,26.891,290.66,74,100,1.95,ZA,1731284474
397,peniche,39.3558,-9.3811,292.15,92,63,6.62,PT,1731284773
398,jeddah,21.5169,39.2192,302.07,61,0,3.6,SA,1731284774
399,pangody,65.85,74.4859,261.21,92,100,9.94,RU,1731284776
400,holualoa,19.6228,-155.9522,299.17,75,40,5.14,US,1731284777
401,luderitz,-26.6481,15.1594,287.45,82,0,6.98,NA,1731284611
402,kapuskasing,49.4169,-82.4331,279.15,87,100,2.57,CA,1731284779
403,jayapura,-2.5333,140.7,300.81,83,69,1.75,ID,1731284780
404,magadan,59.5667,150.8,264.68,71,100,10.19,RU,1731284781
405,treasure island,27.7692,-82.769,300.16,76,0,2.06,US,1731284783
406,chul'man,56.8479,124.9104,250.65,100,89,0.91,RU,1731284784
407,piacabucu,-10.4056,-36.4344,298.69,83,79,7.5,BR,1731284785
408,mtsensk,53.2766,36.5733,273.84,88,62,1.56,RU,1731284787
409,nallihan,40.1859,31.3518,279.54,58,99,1.85,TR,1731284789
410,kattivakkam,13.2167,80.3167,299.9,92,39,5.24,IN,1731284790
411,nyrsko,49.2939,13.1435,273.76,85,0,0.74,CZ,1731284794
412,paphos,34.7667,32.4167,290.03,94,40,3.6,CY,1731284612
413,hadibu,12.65,54.0333,298.62,80,14,4.4,YE,1731284796
414,serilingampalle,17.4931,78.302,292.07,70,58,2.5,IN,1731284797
415,ridgecrest,35.6225,-117.6709,295.75,13,0,1.54,US,1731284798
416,la'ie,21.6477,-157.9253,300.81,75,12,4.02,US,1731284800
417,safaga,26.7292,33.9365,295.56,47,0,6.88,EG,1731284801
418,susuman,62.7833,148.1667,240.42,98,92,0.3,RU,1731284802
419,nogliki,51.8333,143.1667,271.99,62,95,11.74,RU,1731284803
420,ghat,24.9647,10.1728,291.66,31,40,2.15,LY,1731284804
421,alvaraes,-3.2208,-64.8042,297.46,95,96,1.21,BR,1731284806
422,nikolayevsk-on-amure,53.1406,140.73,270.21,86,98,6.34,RU,1731284807
423,agadez,19.75,10.25,292.22,26,0,2.69,NE,1731284808
424,tazacorte,28.629,-17.9293,299.9,25,0,4.47,ES,1731284809
425,scarborough,54.2797,-0.4044,281.29,65,52,0.45,GB,1731284810
426,vernon,50.2581,-119.2691,281.9,80,100,0.51,CA,1731284812
427,baiyin,36.5583,104.2081,278.36,57,87,3.75,CN,1731284813
428,abepura,-2.6333,140.5833,300.6,83,40,1.03,ID,1731284814
429,brazil,39.5237,-87.125,289.48,66,0,5.3,US,1731284817
430,egersund,58.4513,5.9997,280.74,83,100,2.38,NO,1731284818
431,cam ranh,11.9214,109.1591,299.13,78,0,0.51,VN,1731284819
432,dahab,28.501,34.5134,295.06,47,0,5.09,EG,1731284820
433,gulf breeze,30.3571,-87.1639,298.16,93,100,6.17,US,1731284821
434,buta,2.7858,24.73,293.7,100,100,0.32,CD,1731284761
435,irymple,-34.25,142.1667,298.2,41,100,5.38,AU,1731284824
436,tobelo,1.7284,128.0095,301.15,80,44,1.14,ID,1731284825
437,umba,66.6871,34.3429,272.62,90,42,2.92,RU,1731284826
438,kourou,5.1552,-52.6478,300.33,81,87,3.7,GF,1731284827
439,zakharivka,47.3333,29.75,276.15,78,9,2.63,UA,1731284829
440,sattahip,12.6664,100.9007,298.2,78,20,2.57,TH,1731284830
441,rio preto da eva,-2.6994,-59.6997,300.64,63,48,1.54,BR,1731284831
442,keflavik,64.0049,-22.5624,278.39,87,75,9.26,IS,1731284833
443,crane,31.3974,-102.3501,291.14,19,0,1.75,US,1731284835
444,dayrut,27.556,30.8076,290.63,45,0,2.92,EG,1731284836
445,lefkada,38.8275,20.7019,286.47,81,20,0.0,GR,1731284837
446,puerto aysen,-45.4,-72.7,279.41,99,100,2.01,CL,1731284838
447,esmeraldas,-19.7625,-44.3139,293.14,88,71,4.44,BR,1731284839
448,laguna,38.421,-121.4238,294.86,34,0,2.06,US,1731284726
449,inari,68.906,27.0288,270.74,86,66,1.89,FI,1731284842
450,manaure,11.7751,-72.4445,300.39,78,69,2.48,CO,1731284843
451,anna regina,7.2644,-58.5077,301.26,77,55,5.2,GY,1731284844
452,milledgeville,33.0801,-83.2321,290.23,97,100,2.06,US,1731284846
453,benguela,-12.5763,13.4055,297.49,83,98,3.03,AO,1731284847
454,utrik,11.2278,169.8474,301.64,77,1,9.01,MH,1731284848
455,santiago de cao,-7.9589,-79.2392,291.22,88,87,2.57,PE,1731284849
456,west bay,19.3667,-81.4167,299.19,89,20,0.51,KY,1731284850
457,charters towers,-20.1,146.2667,303.44,40,35,7.06,AU,1731284852
458,mananjary,-21.2167,48.3333,296.85,94,64,3.38,MG,1731284853
459,moires,35.0532,24.8744,285.49,70,5,1.79,GR,1731284855
460,luena,-11.7833,19.9167,289.08,98,72,1.56,AO,1731284857
461,palikir - national government center,6.9248,158.1611,301.62,79,100,2.57,FM,1731284858
462,aykhal,66.0,111.5,257.16,98,100,2.75,RU,1731284859
463,halifax,44.6453,-63.5724,279.51,66,14,4.63,CA,1731284827
464,namtsy,62.7161,129.6658,253.24,100,97,0.46,RU,1731284861
465,howard springs,-12.497,131.047,305.36,71,84,2.45,AU,1731284747
466,fort mcmurray,56.7268,-111.381,272.88,74,100,1.54,CA,1731284672
467,usinsk,65.9939,57.5281,260.31,97,28,4.36,RU,1731284865
468,xining,36.6167,101.7667,276.26,70,77,1.47,CN,1731284866
469,wewak,-3.5534,143.6268,301.06,79,100,1.68,PG,1731284867
470,savelugu,9.6244,-0.8253,299.41,33,72,2.17,GH,1731284869
471,nchelenge,-9.3451,28.734,295.1,83,89,3.24,ZM,1731284870
472,castillos,-34.1667,-53.8333,288.66,89,7,3.13,UY,1731284871
473,zaozersk,69.4005,32.4476,274.76,71,98,6.07,RU,1731284872
474,cheongju-si,36.6372,127.4897,281.13,100,1,1.03,KR,1731284873
475,amarante do maranhao,-5.5667,-46.7422,301.41,57,97,1.86,BR,1731284875
476,qui nhon,13.7667,109.2333,296.9,82,46,1.09,VN,1731284876
477,daru,-9.0763,143.2092,301.63,71,98,5.06,PG,1731284877
478,berezovo,63.9381,65.0419,261.82,78,85,6.1,RU,1731284878
479,egilsstadir,65.2653,-14.3948,282.1,49,40,8.75,IS,1731284879
480,el porvenir,13.7617,-87.3458,295.72,92,58,0.74,HN,1731284881
481,kuanda,56.3161,116.0806,256.05,97,100,0.21,RU,1731284882
482,hobyo,5.3505,48.5268,300.08,78,100,7.56,SO,1731284883
483,taksimo,56.3444,114.8794,258.36,90,100,0.74,RU,1731284884
484,pionerskiy,54.9508,20.2275,275.06,76,32,4.57,RU,1731284885
485,iowa falls,42.5225,-93.2513,284.22,81,40,5.66,US,1731284887
486,ulladulla,-35.35,150.4667,290.75,71,100,0.91,AU,1731284888
487,sosnovo-ozerskoye,52.5249,111.5418,261.23,97,96,0.64,RU,1731284889
488,as suwayq,23.8494,57.4386,299.58,58,0,2.03,OM,1731284890
489,coari,-4.085,-63.1414,296.67,98,91,0.98,BR,1731284891
490,guasdualito,7.2424,-70.7324,299.13,94,20,0.0,VE,1731284893
491,dryden,49.7833,-92.7503,280.31,93,100,4.12,CA,1731284894
492,fiambala,-27.6871,-67.6149,298.3,48,3,5.35,AR,1731284895
493,nueva guinea,11.6876,-84.4562,296.27,94,100,2.47,NI,1731284896
494,peace river,56.2501,-117.286,271.32,80,0,3.09,CA,1731284897
495,peto,20.1333,-88.9167,296.7,99,94,0.95,MX,1731284899
496,radzyn podlaski,51.7833,22.6167,275.54,77,10,2.86,PL,1731284900
497,nadym,65.5333,72.5167,261.37,93,100,11.54,RU,1731284901
498,remire-montjoly,4.9167,-52.2667,298.17,100,20,1.03,GF,1731284902
499,laiyang,36.9758,120.7136,286.49,82,47,0.37,CN,1731284903
500,erenhot,43.6475,111.9767,277.34,55,90,6.7,CN,1731284905
501,ipora,-16.4419,-51.1178,297.45,80,100,1.34,BR,1731284906
502,itupiranga,-5.1347,-49.3267,301.63,50,36,1.2,BR,1731284907
503,veraval,20.9,70.3667,298.82,63,0,3.63,IN,1731284908
504,amarpur,25.0333,86.9,294.79,66,1,1.0,IN,1731284909
505,novyy urengoy,66.0833,76.6333,263.55,93,100,8.9,RU,1731284911
506,morant bay,17.8815,-76.4093,299.32,87,13,2.94,JM,1731284912
507,essaouira,31.5125,-9.77,293.87,60,4,3.6,MA,1731284913
508,macia,-25.0269,33.0989,295.84,93,100,2.35,MZ,1731284914
509,chinde,26.8212,87.7095,291.71,73,0,2.49,NP,1731284915
510,jining,35.405,116.5814,289.1,86,100,1.73,CN,1731284917
511,zahedan,29.4963,60.8629,281.1,42,0,2.06,IR,1731284918
512,brisas barra de suchiate,14.55,-92.2167,300.7,76,15,2.32,MX,1731284919
513,kolonia,50.9333,6.95,283.22,92,100,2.57,DE,1731284751
514,kamina,-8.7386,24.9906,290.78,98,100,1.49,CD,1731284921
515,toledo,39.8333,-4.0,285.22,80,9,1.38,ES,1731284923
516,morelos,18.75,-99.0,299.89,57,27,1.88,MX,1731284924
517,ciudad madero,22.2667,-97.8333,299.29,83,0,3.6,MX,1731284925
518,weyburn,49.6668,-103.8511,275.27,87,97,6.69,CA,1731284926
519,shchuchinsk,52.9333,70.2,264.34,98,100,2.36,KZ,1731284927
520,leava,-14.3,-178.1667,300.52,82,99,7.77,WF,1731284928
521,alesund,62.4723,6.1549,280.23,70,100,4.12,NO,1731284930
522,kailua-kona,19.6406,-155.9956,301.24,73,40,5.14,US,1731284931
523,lamu,-2.2717,40.902,299.26,87,97,3.83,KE,1731284932
524,sao tome,0.3365,6.7273,299.08,82,98,0.87,ST,1731284933
525,taroa,8.7058,171.2275,301.39,77,2,7.42,MH,1731284936
526,shache,38.4167,77.2406,283.3,49,100,0.46,CN,1731284937
527,mount pleasant,32.7941,-79.8626,295.23,88,20,2.06,US,1731284938
528,cannonvale,-20.2833,148.7,300.81,63,73,5.96,AU,1731284939
529,barbuletu,45.1333,25.3,277.9,95,100,1.25,RO,1731284941
530,paungde,18.4833,95.5,294.52,96,70,3.27,MM,1731284942
531,bobo-dioulasso,11.1771,-4.2979,294.4,60,0,3.09,BF,1731284943
532,paulden,34.8856,-112.4682,292.54,21,31,0.45,US,1731284944
533,binkolo,8.9533,-11.9779,296.69,78,50,1.08,SL,1731284946
534,quelimane,-17.8786,36.8883,296.98,88,12,2.27,MZ,1731284947
535,pisz,53.6274,21.8125,275.39,78,76,1.93,PL,1731284948
536,polyarnyy,69.1989,33.4478,274.81,70,99,6.44,RU,1731284949
537,kotabumi,-4.8333,104.9,299.04,83,100,1.1,ID,1731284950
538,lander,42.833,-108.7307,280.6,53,0,3.6,US,1731284734
539,mitu,1.1983,-70.1733,295.95,98,83,0.69,CO,1731284953
540,nanao,37.05,136.9667,291.54,66,94,1.4,JP,1731284954
541,crixas,-14.5489,-49.9692,296.12,87,73,0.71,BR,1731284956
542,fortuna,40.5982,-124.1573,292.0,43,0,5.66,US,1731284958
543,fisterra,42.9049,-9.2629,289.65,92,54,3.61,ES,1731284959
544,selfoss,63.9331,-20.9971,278.17,78,78,6.95,IS,1731284960
545,dzhambeyty,50.2536,52.595,275.34,85,99,4.2,KZ,1731284961
546,haiku-pauwela,20.9219,-156.3051,301.16,60,20,9.83,US,1731284962
547,urangan,-25.3,152.9,297.65,78,99,6.27,AU,1731284964
548,alofi,-19.0595,-169.9187,298.09,83,100,8.75,NU,1731284965
549,tongliao,43.6125,122.2653,277.65,39,100,6.18,CN,1731284966
550,yuzhno-kurilsk,44.0306,145.8556,282.19,92,89,5.46,RU,1731284967
551,kievka,50.2619,71.5514,272.41,96,99,7.11,KZ,1731284968
552,sandy,40.572,-111.8606,285.96,46,0,2.06,US,1731284970
553,kayangel,8.0823,134.7173,301.35,72,25,2.14,PW,1731284971
554,sao paulo de olivenca,-3.3783,-68.8725,299.01,85,99,0.96,BR,1731284972
555,snyder,32.7179,-100.9176,289.34,51,0,1.54,US,1731284973
556,mili,6.0815,171.735,301.81,75,41,6.85,MH,1731284974
557,kirkwall,58.9848,-2.9587,283.13,81,75,6.69,GB,1731284975
558,marka,1.7159,44.7717,299.24,83,57,3.33,SO,1731284977
559,southport,53.6478,-3.0065,284.27,84,99,6.44,GB,1731284979
560,bintulu,3.1667,113.0333,299.38,94,40,1.54,MY,1731284980
561,kavieng,-2.5744,150.7967,302.45,70,82,6.14,PG,1731284983
562,jashpurnagar,22.9,84.15,289.57,70,5,1.92,IN,1731284984
563,paterna de rivera,36.5211,-5.8494,287.49,67,47,1.8,ES,1731284986
564,lycksele,64.5954,18.6735,274.08,100,100,2.06,SE,1731284987
565,dakhla,23.6848,-15.958,294.43,66,0,6.7,EH,1731284988
566,jwaneng,-24.6004,24.7303,293.04,77,100,5.95,BW,1731284989
567,kovdor,67.5662,30.4758,269.85,94,74,1.77,RU,1731284738
568,nha trang,12.25,109.1833,299.15,81,37,1.68,VN,1731284992
569,isangel,-19.55,169.2667,302.21,65,75,5.14,VU,1731284993
570,sal rei,16.1833,-22.9167,298.94,77,88,7.23,CV,1731284994
571,eirunepe,-6.6603,-69.8736,300.69,67,97,1.52,BR,1731284995
572,shimoda,34.6667,138.95,291.41,85,100,3.64,JP,1731284996
573,las khorey,11.1595,48.1967,299.23,71,78,3.34,SO,1731284998
